codigo,nombre,categoria,tecnologia,estado,municipio,latitud,longitud,area_hidrografica,zona_hidrografica,subzona_hidrografica,fecha_instalacion,fecha_suspension
2120500343,CERRO SAMPER [2120500343],Pluviométrica,Automática sin Telemetría,Activa,"Bogotá, D.C",4.713388889,-74.01,Magdalena Cauca,Alto Magdalena,Río Bogotá,01/02/2024,
2120000101,ALTOS DE LA ESTANCIA [2120000101],Pluviométrica,Automática con Telemetría,Activa,"Bogotá, D.C",4.58074,-74.17828,Magdalena Cauca,Alto Magdalena,Río Bogotá,19/06/2018,
0021205380,HIPOTECHO  [21205380],Climatológica Ordinaria,Convencional,Activa,"Bogotá, D.C",4.633333333,-74.13333333,Magdalena Cauca,Alto Magdalena,Río Bogotá,15/05/1957,
2120000122,COLEGIO INEM FRANCISCO DE PAULA SANTANDER (IED) [2120000122],Pluviométrica,Automática con Telemetría,Activa,"Bogotá, D.C",4.624567,-74.154993,Magdalena Cauca,Alto Magdalena,Río Bogotá,01/11/2016,
0021200310,CERRO DE SUBA  [21200310],Pluviométrica,Convencional,Activa,"Bogotá, D.C",4.75,-74.06666667,Magdalena Cauca,Alto Magdalena,Río Bogotá,15/09/1947,
0021206500,COLEGIO ABRAHAM LINCOLN [21206500],Climatológica Ordinaria,Convencional,Suspendida,"Bogotá, D.C",4.756638889,-74.06158333,Magdalena Cauca,Alto Magdalena,Río Bogotá,15/10/1994,03/11/2009
2120000169,COLEGIO LA BELLEZA (IED) [2120000169],Pluviométrica,Automática con Telemetría,Activa,"Bogotá, D.C",4.53059,-74.09244,Magdalena Cauca,Alto Magdalena,Río Bogotá,01/09/2019,
2120000127,COLEGIO EDUARDO UMAÑA [2120000127],Pluviométrica,Automática con Telemetría,Activa,"Bogotá, D.C",4.48997,-74.11308,Magdalena Cauca,Alto Magdalena,Río Bogotá,01/09/2018,
0021201120,CASITA LA  [21201120],Pluviométrica,Convencional,Activa,La Calera,4.633333333,-74.01666667,Magdalena Cauca,Alto Magdalena,Río Bogotá,15/03/1973,
2120500348,TRAMONTI [2120500348],Pluviométrica,Automática con Telemetría,Activa,"Bogotá, D.C",4.666388889,-74.037277778,Magdalena Cauca,Alto Magdalena,Río Bogotá,18/07/2022,
2120000105,EL CODITO [2120000105],Climatológica Ordinaria,Automática con Telemetría,Activa,"Bogotá, D.C",4.763457,-74.021772,Magdalena Cauca,Alto Magdalena,Río Bogotá,01/11/2011,
2120000120,COLEGIO GUSTAVO MORALES [2120000120],Pluviométrica,Automática con Telemetría,Activa,"Bogotá, D.C",4.716619,-74.064401,Magdalena Cauca,Alto Magdalena,Río Bogotá,01/11/2016,
2120000102,COLEGIO CARLOS PIZARRO [2120000102],Pluviométrica,Automática con Telemetría,Activa,"Bogotá, D.C",4.635369444,-74.205408333,Magdalena Cauca,Alto Magdalena,Río Bogotá,19/06/2018,
2120000173,COLEGIO CARLO FEDERICI (IED) [2120000173],Pluviométrica,Automática con Telemetría,Activa,"Bogotá, D.C",4.67168,-74.15894,Magdalena Cauca,Alto Magdalena,Río Bogotá,01/12/2019,
2120000123,COLEGIO LA CHUCUA [2120000123],Pluviométrica,Automática con Telemetría,Activa,"Bogotá, D.C",4.60356,-74.148507,Magdalena Cauca,Alto Magdalena,Río Bogotá,01/11/2016,
2120000175,COLEGIO LA FELICIDAD (IED) [2120000175],Pluviométrica,Automática con Telemetría,Activa,"Bogotá, D.C",4.656,-74.131111111,Magdalena Cauca,Alto Magdalena,Río Bogotá,01/12/2019,
2120500344,SORATAMA [2120500344],Climatológica Principal,Automática con Telemetría,Activa,"Bogotá, D.C",4.742055556,-74.013833333,Magdalena Cauca,Alto Magdalena,Río Bogotá,15/05/2022,
3502500352,POZO 3 - RINCON DEL OSO [3502500352],Pluviométrica,Automática con Telemetría,Activa,La Calera,4.717222222,-73.8575,Orinoco,Meta,Río Guayuriba,04/04/2021,
2120000128,COLEGIO GABRIEL GARCIA MARQUEZ [2120000128],Pluviométrica,Automática con Telemetría,Activa,"Bogotá, D.C",4.50499,-74.09235,Magdalena Cauca,Alto Magdalena,Río Bogotá,01/09/2018,
2120000099,COLEGIO VEINTIUN ANGELES [2120000099],Pluviométrica,Automática con Telemetría,Activa,"Bogotá, D.C",4.749234,-74.08073,Magdalena Cauca,Alto Magdalena,Río Bogotá,01/02/2015,
2120000109,COLEGIO RODOLFO LLINAS [2120000109],Pluviométrica,Automática con Telemetría,Activa,"Bogotá, D.C",4.720124,-74.108288,Magdalena Cauca,Alto Magdalena,Río Bogotá,01/02/2015,
2120000140,FUNDACIÓN ANA RESTREPO DEL CORRAL [2120000140],Pluviométrica,Automática con Telemetría,Activa,"Bogotá, D.C",4.7055,-74.02263,Magdalena Cauca,Alto Magdalena,Río Bogotá,01/10/2018,
2120500204,IDEAM PUENTE ARANDA [2120500204],Climatológica Principal,Automática con Telemetría,Activa,"Bogotá, D.C",4.621608,-74.103408,Magdalena Cauca,Alto Magdalena,Río Bogotá,16/06/2023,
2120500201,VITELMA [2120500201],Climatológica Ordinaria,Automática con Telemetría,Activa,"Bogotá, D.C",4.57515,-74.07175,Magdalena Cauca,Alto Magdalena,Río Bogotá,01/10/2000,
2120000104,COLEGIO MIGUEL ANTONIO CARO [2120000104],Climatológica Ordinaria,Automática con Telemetría,Activa,"Bogotá, D.C",4.81326,-74.03146,Magdalena Cauca,Alto Magdalena,Río Bogotá,01/11/2011,
2120500216,QUEBRADA ROSALES CUENCA ALTA [2120500216],Pluviométrica,Convencional,Activa,Guasca,4.763111111,-73.863222222,Magdalena Cauca,Alto Magdalena,Río Bogotá,17/02/2015,
2120000118,COLEGIO ALBERTO LLERAS CAMARGO [2120000118],Pluviométrica,Automática con Telemetría,Activa,"Bogotá, D.C",4.743304,-74.102293,Magdalena Cauca,Alto Magdalena,Río Bogotá,01/12/2016,
2120000172,COLEGIO UNION COLOMBIA SEDE A (IED) [2120000172],Climatológica Ordinaria,Automática con Telemetría,Activa,"Bogotá, D.C",4.75947,-74.02752,Magdalena Cauca,Alto Magdalena,Río Bogotá,01/11/2019,
2120500215,QUEBRADA EL ASILO CUENCA ALTA [2120500215],Pluviométrica,Convencional,Activa,Guasca,4.775277778,-73.901083333,Magdalena Cauca,Alto Magdalena,Río Bogotá,16/02/2015,
2120000103,CERRO NORTE - AUT  [2120000103],Pluviométrica,Automática con Telemetría,Activa,"Bogotá, D.C",4.73254,-74.01871,Magdalena Cauca,Alto Magdalena,Río Bogotá,01/11/2011,
0021205290,EDIFICIO SAMPER  [21205290],Climatológica Ordinaria,Convencional,Suspendida,"Bogotá, D.C",4.616666667,-74.08333333,Magdalena Cauca,Alto Magdalena,Río Bogotá,15/01/1944,15/01/1950
2120000139,ESC. PEDAGOGICA EXPRIMENTAL [2120000139],Pluviométrica,Automática con Telemetría,Activa,"Bogotá, D.C",4.67553,-74.01927,Magdalena Cauca,Alto Magdalena,Río Bogotá,01/10/2018,
2120500349,BOSATAMA [2120500349],Climatológica Principal,Automática con Telemetría,Activa,Soacha,4.626555556,-74.226333333,Magdalena Cauca,Alto Magdalena,Río Bogotá,13/05/2024,
2120700038,SAN FRANCISCO - AUT  [2120700038],HidroMeteorologica,Automática con Telemetría,Activa,"Bogotá, D.C",4.56235,-74.148869,Magdalena Cauca,Alto Magdalena,Río Bogotá,01/11/2012,
2120000134,COLEGIO LOS ALPES SEDE A [2120000134],Pluviométrica,Automática con Telemetría,Activa,"Bogotá, D.C",4.55257,-74.08373,Magdalena Cauca,Alto Magdalena,Río Bogotá,01/11/2018,
2120500345,SANTA CLARA [2120500345],Climatológica Principal,Automática con Telemetría,Activa,Chía,4.848,-74.084222222,Magdalena Cauca,Alto Magdalena,Río Bogotá,22/04/2022,
2120000126,COLEGIO CIUDAD DE VILLAVICENCIO [2120000126],Pluviométrica,Automática con Telemetría,Activa,"Bogotá, D.C",4.48706,-74.10213,Magdalena Cauca,Alto Magdalena,Río Bogotá,01/09/2018,
2120500398,LAGUNAS DE SIECHA AUT - [2120500398],Meteorológica Especial,Automática sin Telemetría,Activa,Guasca,4.761611111,-73.851861111,Magdalena Cauca,Alto Magdalena,Río Bogotá,20/10/2015,
2120000130,COLEGIO PAULO FREIRE [2120000130],Pluviométrica,Automática con Telemetría,Activa,"Bogotá, D.C",4.5328,-74.11684,Magdalena Cauca,Alto Magdalena,Río Bogotá,01/09/2018,
0021206450,TERMOZIPA [21206450],Climatológica Principal,Convencional,Suspendida,Tocancipá,4.983333333,-73.93333333,Magdalena Cauca,Alto Magdalena,Río Bogotá,15/05/1992,15/01/1996
2120000138,COLEGIO NUEVA ZELANDIA [2120000138],Pluviométrica,Automática con Telemetría,Activa,"Bogotá, D.C",4.76587,-74.04681,Magdalena Cauca,Alto Magdalena,Río Bogotá,01/10/2018,
3502500351,POZO 4 [3502500351],Pluviométrica,Automática sin Telemetría,Activa,Guasca,4.718333333,-73.870277778,Orinoco,Meta,Río Guayuriba,03/04/2022,
2120000124,COLEGIO RAFAEL URIBE [2120000124],Pluviométrica,Automática con Telemetría,Activa,"Bogotá, D.C",4.583176,-74.132461,Magdalena Cauca,Alto Magdalena,Río Bogotá,01/12/2016,
2306500204,ALTO DEL VINO [2306500204],Climatológica Principal,Automática con Telemetría,Activa,San Francisco,4.876695,-74.287811,Magdalena Cauca,Medio Magdalena,Río Negro,20/12/2023,
2120000125,COLEGIO SORRENTO (SEDE B SAN RAFAEL) (IED)  [2120000125],Pluviométrica,Automática con Telemetría,Activa,"Bogotá, D.C",4.619586,-74.11322,Magdalena Cauca,Alto Magdalena,Río Bogotá,01/11/2016,
2120000121,COLEGIO GUSTAVO RESTREPO [2120000121],Pluviométrica,Automática con Telemetría,Activa,"Bogotá, D.C",4.575873,-74.106178,Magdalena Cauca,Alto Magdalena,Río Bogotá,01/11/2016,
2120000131,COLEGIO ANTONIO GARCIA [2120000131],Pluviométrica,Automática con Telemetría,Activa,"Bogotá, D.C",4.545,-74.13944,Magdalena Cauca,Alto Magdalena,Río Bogotá,01/09/2018,
2120000129,COLEGIO OFELIA URIBE ACOSTA [2120000129],Pluviométrica,Automática con Telemetría,Activa,"Bogotá, D.C",4.50643,-74.10251,Magdalena Cauca,Alto Magdalena,Río Bogotá,01/09/2018,
0021205540,INST GEOFI ANDES  [21205540],Climatológica Ordinaria,Convencional,Activa,"Bogotá, D.C",4.633333333,-74.06666667,Magdalena Cauca,Alto Magdalena,Río Bogotá,15/01/1942,
0021206780,LA INDEPENDENCI - AUT [21206780],HidroMeteorologica,Automática con Telemetría,Activa,"Bogotá, D.C",4.619272,-74.194594,Magdalena Cauca,Alto Magdalena,Río Bogotá,01/03/2003,
2120000106,GRAN BRETAÑA [2120000106],Climatológica Ordinaria,Automática con Telemetría,Activa,"Bogotá, D.C",4.5117,-74.163522222,Magdalena Cauca,Alto Magdalena,Río Bogotá,01/11/2012,
2120000132,COLEGIO EL TESORO DE LA CUMBRE [2120000132],Pluviométrica,Automática con Telemetría,Activa,"Bogotá, D.C",4.53531,-74.14909,Magdalena Cauca,Alto Magdalena,Río Bogotá,01/09/2018,
2120000136,COL. LOS PINOS SEDE A [2120000136],Pluviométrica,Automática con Telemetría,Suspendida,"Bogotá, D.C",4.58781,-74.06813,Magdalena Cauca,Alto Magdalena,Río Bogotá,01/10/2018,
2120000174,COLEGIO MAGDALENA ORTEGA DE NARIÑO (IED) [2120000174],Pluviométrica,Automática con Telemetría,Activa,"Bogotá, D.C",4.68664,-74.08296,Magdalena Cauca,Alto Magdalena,Río Bogotá,01/12/2019,
2120500202,COLEGIO SIERRA MORENA SEDE A (IED) [2120500202],Climatológica Ordinaria,Automática con Telemetría,Activa,"Bogotá, D.C",4.57455,-74.17014,Magdalena Cauca,Alto Magdalena,Río Bogotá,01/10/2000,
2306500358,LA VERÓNICA [2306500358],Pluviométrica,Convencional,Activa,San Francisco,4.984661111,-74.300075,Magdalena Cauca,Medio Magdalena,Río Negro,05/03/2026,
2120000170,COLEGIO SIMON RODRIGUEZ SEDE C [2120000170],Pluviométrica,Automática con Telemetría,Activa,"Bogotá, D.C",4.6405,-74.05435,Magdalena Cauca,Alto Magdalena,Río Bogotá,01/10/2019,
0021200230,SAN DIEGO  [21200230],Pluviométrica,Convencional,Activa,"Bogotá, D.C",4.616666667,-74.06666667,Magdalena Cauca,Alto Magdalena,Río Bogotá,15/12/1945,
2120500135,UNIVERSIDAD DE LA SABANA [2120500135],Climatológica Principal,Automática con Telemetría,Activa,Chía,4.85414,-74.03269,Magdalena Cauca,Alto Magdalena,Río Bogotá,17/10/2018,
2120500356,ESCUELA COLOMBIANA DE INGENIERÍA - AUT [2120500356],Climatológica Ordinaria,Automática con Telemetría,Activa,"Bogotá, D.C",4.783641944,-74.045982778,Magdalena Cauca,Alto Magdalena,Río Bogotá,11/01/2024,
2120000100,COLEGIO ALEMANIA SOLIDARIA [2120000100],Pluviométrica,Automática con Telemetría,Activa,"Bogotá, D.C",4.652389,-74.075434,Magdalena Cauca,Alto Magdalena,Río Bogotá,01/10/2015,
2120700154,MOLINOS [2120700154],HidroMeteorologica,Automática con Telemetría,Activa,"Bogotá, D.C",4.55322,-74.10789,Magdalena Cauca,Alto Magdalena,Río Bogotá,01/10/2009,
2120000133,COLEGIO EL MANANTIAL [2120000133],Climatológica Ordinaria,Automática con Telemetría,Activa,"Bogotá, D.C",4.56144,-74.07482,Magdalena Cauca,Alto Magdalena,Río Bogotá,01/09/2018,
2120000107,LA FISCALA - AUT [2120000107],Climatológica Ordinaria,Automática con Telemetría,Activa,"Bogotá, D.C",4.53602,-74.10654,Magdalena Cauca,Alto Magdalena,Río Bogotá,01/12/2011,
2120500203,GRAVILLERAS RIO TUNJUELITO [2120500203],HidroMeteorologica,Automática con Telemetría,Activa,"Bogotá, D.C",4.53335,-74.12513,Magdalena Cauca,Alto Magdalena,Río Bogotá,01/09/2007,
0021206890,CERRO CAZADORES [21206890],Climatológica Ordinaria,Automática con Telemetría,Activa,"Bogotá, D.C",4.66577,-74.02861,Magdalena Cauca,Alto Magdalena,Río Bogotá,01/09/2007,
2120500342,MONTAÑA DEL OSO [2120500342],Pluviométrica,Automática con Telemetría,Activa,Chía,4.829444444,-74.013888889,Magdalena Cauca,Alto Magdalena,Río Bogotá,01/01/2022,
2120000135,COLEGIO MANUEL ELKIN PATARROYO [2120000135],Pluviométrica,Automática con Telemetría,Activa,"Bogotá, D.C",4.61823,-74.06439,Magdalena Cauca,Alto Magdalena,Río Bogotá,01/10/2018,
0021206840,DONA JUANA  [21206840],Climatológica Principal,Convencional,Activa,"Bogotá, D.C",4.516666667,-74.11666667,Magdalena Cauca,Alto Magdalena,Río Bogotá,15/02/2004,
0021205600,VELODROMO 1 D MAYO [21205600],Meteorológica Especial,Convencional,Suspendida,"Bogotá, D.C",4.616666667,-74.06666667,Magdalena Cauca,Alto Magdalena,Río Bogotá,15/03/1986,15/06/1993
0021205760,CLINICA SAN RAFAEL [21205760],Meteorológica Especial,Convencional,Suspendida,"Bogotá, D.C",4.6,-74.08333333,Magdalena Cauca,Alto Magdalena,Río Bogotá,15/01/1985,15/01/1998
0021205523,UNIVERSIDAD SANTO TOMÁS  - AUT  [21205523],Climatológica Principal,Automática con Telemetría,Activa,"Bogotá, D.C",4.788157222,-74.05005889,Magdalena Cauca,Alto Magdalena,Río Bogotá,,
2120000119,COLEGIO ALEMANIA UNIFICADA [2120000119],Pluviométrica,Automática con Telemetría,Activa,"Bogotá, D.C",4.555765,-74.09667,Magdalena Cauca,Alto Magdalena,Río Bogotá,01/01/2010,
2120000171,COLEGIO AGUSTIN FERNANDEZ [2120000171],Pluviométrica,Automática con Telemetría,Activa,"Bogotá, D.C",4.72911,-74.02383,Magdalena Cauca,Alto Magdalena,Río Bogotá,01/11/2019,
2120500355,CERRO LA VIGA - AUT [2120500355],Climatológica Ordinaria,Automática con Telemetría,Activa,"Bogotá, D.C",4.56587,-74.03135,Magdalena Cauca,Alto Magdalena,Río Bogotá,12/01/2021,
0021206880,CANAL JABOQUE  [21206880],Climatológica Principal,Convencional,Activa,"Bogotá, D.C",4.716666667,-74.15,Magdalena Cauca,Alto Magdalena,Río Bogotá,15/02/2004,
0021206580,COGUA  [21206580],Climatológica Principal,Convencional,Activa,Cogua,5.05,-73.98333333,Magdalena Cauca,Alto Magdalena,Río Bogotá,15/03/2000,
0021206140,TIBITOC 2  [21206140],Climatológica Ordinaria,Convencional,Suspendida,Tocancipá,4.966666667,-73.93333333,Magdalena Cauca,Alto Magdalena,Río Bogotá,15/01/1957,15/12/1958
0021200590,TUNAL EL CANDELARI  [21200590],Pluviométrica,Convencional,Activa,"Bogotá, D.C",4.566666667,-74.15,Magdalena Cauca,Alto Magdalena,Río Bogotá,15/04/1957,
0021200820,CORCEGA  [21200820],Pluviométrica,Convencional,Suspendida,Facatativá,4.783333333,-74.31666667,Magdalena Cauca,Alto Magdalena,Río Bogotá,15/01/1961,15/07/1964
2120000137,COLEGIO FRIEDRICH NAUMANN [2120000137],Pluviométrica,Automática con Telemetría,Activa,"Bogotá, D.C",4.74943,-74.02285,Magdalena Cauca,Alto Magdalena,Río Bogotá,01/10/2018,
2120000108,IDIGER - AUT [2120000108],Pluviométrica,Automática con Telemetría,Activa,"Bogotá, D.C",4.674932,-74.113609,Magdalena Cauca,Alto Magdalena,Río Bogotá,01/11/2009,
2120000117,COLEGIO MORALBA SURORIENTAL (IED) [2120000117],Pluviométrica,Automática con Telemetría,Activa,"Bogotá, D.C",4.54294,-74.08031,Magdalena Cauca,Alto Magdalena,Río Bogotá,01/04/2008,
0021205520,ELDORADO DIDACTICA [21205520],Climatológica Principal,Convencional,Suspendida,"Bogotá, D.C",4.7,-74.15,Magdalena Cauca,Alto Magdalena,Río Bogotá,15/01/1959,15/03/2000
0021205040,PICOTA LA  [21205040],Climatológica Ordinaria,Convencional,Suspendida,"Bogotá, D.C",4.55,-74.13333333,Magdalena Cauca,Alto Magdalena,Río Bogotá,15/01/1929,15/09/1953
0021202040,JUAN REY  [21202040],Pluviográfica,Convencional,Activa,"Bogotá, D.C",4.516666667,-74.08333333,Magdalena Cauca,Alto Magdalena,Río Bogotá,15/08/1990,
0021201970,CASABLANCA  [21201970],Pluviométrica,Convencional,Activa,"Bogotá, D.C",4.566666667,-74.16666667,Magdalena Cauca,Alto Magdalena,Río Bogotá,15/05/1976,
0021202170,SIERRA MORENA  - AUT  [21202170],Pluviométrica,Automática con Telemetría,Activa,"Bogotá, D.C",4.566666667,-74.16666667,Magdalena Cauca,Alto Magdalena,Río Bogotá,01/09/1999,
0021205720,GRANJA SAN JORGE [21205720],Climatológica Ordinaria,Convencional,Activa,Soacha,4.50575,-74.18927778,Magdalena Cauca,Alto Magdalena,Río Bogotá,15/04/1960,
0021205980,GRANJA PROVIDENCIA [21205980],Climatológica Ordinaria,Convencional,Activa,Tenjo,4.792388889,-74.20091667,Magdalena Cauca,Alto Magdalena,Río Bogotá,15/02/1977,
0021205506,GUAMAL  - AUT  [21205506],Climatológica Principal,Automática con Telemetría,Activa,Subachoque,5.025055556,-74.15277778,Magdalena Cauca,Alto Magdalena,Río Bogotá,,
0021201490,EST EXPERIMENTAL  [21201490],Pluviográfica,Convencional,Suspendida,Tabio,4.916666667,-74.1,Magdalena Cauca,Alto Magdalena,Río Bogotá,15/05/1940,15/09/1959
0021205514,LAS MARGARITAS  - AUT  [21205514],Climatológica Principal,Automática con Telemetría,Activa,El Rosal,4.469316389,-74.07945417,Magdalena Cauca,Alto Magdalena,Río Bogotá,,
0021201560,PICOTA LA  [21201560],Pluviográfica,Convencional,Activa,"Bogotá, D.C",4.566666667,-74.13333333,Magdalena Cauca,Alto Magdalena,Río Bogotá,15/06/1980,
0021200100,PENAS BLANCAS  [21200100],Pluviométrica,Convencional,Suspendida,Madrid,4.783333333,-74.21666667,Magdalena Cauca,Alto Magdalena,Río Bogotá,15/01/1933,15/08/1933
0021200040,SEMINARIO CONCILIA  [21200040],Pluviométrica,Convencional,Activa,"Bogotá, D.C",4.6,-74.06666667,Magdalena Cauca,Alto Magdalena,Río Bogotá,15/01/1982,
0021206050,ESCUELA COL INGENIERIA [21206050],Climatológica Principal,Convencional,Suspendida,"Bogotá, D.C",4.783333333,-74.05,Magdalena Cauca,Alto Magdalena,Río Bogotá,15/04/1986,10/12/2008
0021200610,JARDIN BOTANICO  [21200610],Pluviométrica,Convencional,Activa,"Bogotá, D.C",4.666666667,-74.1,Magdalena Cauca,Alto Magdalena,Río Bogotá,15/09/1938,
0021200470,INST AGUAS  [21200470],Pluviométrica,Convencional,Suspendida,"Bogotá, D.C",4.6,-74.08333333,Magdalena Cauca,Alto Magdalena,Río Bogotá,15/01/1955,15/03/1956
0021205560,TIBABUYES  [21205560],Climatológica Ordinaria,Convencional,Suspendida,"Bogotá, D.C",4.733333333,-74.08333333,Magdalena Cauca,Alto Magdalena,Río Bogotá,15/02/1964,15/02/1971
0021205508,EDIFICIO CAR  - AUT  [21205508],Climatológica Principal,Automática con Telemetría,Activa,"Bogotá, D.C",4.620960278,-74.06297778,Magdalena Cauca,Alto Magdalena,Río Bogotá,,
0021205630,STA ISABEL  [21205630],Meteorológica Especial,Convencional,Suspendida,Tabio,4.983333333,-74.06666667,Magdalena Cauca,Alto Magdalena,Río Bogotá,15/05/1968,15/11/1981
0021205070,CASA REALES-GUASCA  [21205070],Climatológica Ordinaria,Convencional,Suspendida,Guasca,4.866666667,-73.85,Magdalena Cauca,Alto Magdalena,Río Bogotá,15/09/1929,15/01/1949
0021202120,FONTIBON ACUEDUCTO  [21202120],Pluviométrica,Convencional,Activa,"Bogotá, D.C",4.666666667,-74.15,Magdalena Cauca,Alto Magdalena,Río Bogotá,15/09/1955,
0021206660,COL SANTIAGO PEREZ [21206660],Climatológica Ordinaria,Convencional,Suspendida,"Bogotá, D.C",4.576222222,-74.13091667,Magdalena Cauca,Alto Magdalena,Río Bogotá,15/11/2001,03/05/2019
0035020240,CHOACHI  [35020240],Pluviográfica,Convencional,Activa,Choachí,4.533333333,-73.93333333,Orinoco,Meta,Río Guayuriba,15/08/1947,
0021206550,SENA MOSQUERA [21206550],Climatológica Principal,Convencional,Suspendida,Mosquera,4.7,-74.21666667,Magdalena Cauca,Alto Magdalena,Río Bogotá,15/01/1998,31/03/2008
0021205590,APTO GUAYMARAL  [21205590],Sinóptica Secundaria,Convencional,Activa,"Bogotá, D.C",4.816666667,-74.08333333,Magdalena Cauca,Alto Magdalena,Río Bogotá,15/08/1965,
0021206680,COL NUEVO RETIRO [21206680],Climatológica Ordinaria,Convencional,Suspendida,"Bogotá, D.C",4.734111111,-74.03702778,Magdalena Cauca,Alto Magdalena,Río Bogotá,15/11/2001,05/08/2009
0021205810,CAPITOLIO NACIONAL [21205810],Meteorológica Especial,Convencional,Suspendida,"Bogotá, D.C",4.6,-74.08333333,Magdalena Cauca,Alto Magdalena,Río Bogotá,15/11/1972,15/10/1979
0023065020,LIBERTAD LA  [23065020],Climatológica Ordinaria,Convencional,Suspendida,La Vega,5,-74.33333333,Magdalena Cauca,Medio Magdalena,Río Negro,15/08/1940,15/12/1944
0023065100,SABANETA [23065100],Climatológica Ordinaria,Convencional,Suspendida,La Vega,4.90175,-74.30738889,Magdalena Cauca,Medio Magdalena,Río Negro,15/08/1986,
0021201250,SAN PEDRO [21201250],Pluviométrica,Convencional,Suspendida,Sopó,4.871638889,-73.96666667,Magdalena Cauca,Alto Magdalena,Río Bogotá,15/06/1980,15/02/2013
0021205570,PRIMAVERA LA  [21205570],Climatológica Principal,Convencional,Activa,Subachoque,4.85,-74.21666667,Magdalena Cauca,Alto Magdalena,Río Bogotá,15/06/1965,
0021205012,UNIVERSIDAD NACIONAL [21205012],Climatológica Principal,Automática con Telemetría,Activa,"Bogotá, D.C",4.63723,-74.08892,Magdalena Cauca,Alto Magdalena,Río Bogotá,19/08/2004,
0021206690,COLEGIO MIGUEL A. CARO [21206690],Climatológica Ordinaria,Convencional,Activa,"Bogotá, D.C",4.813166667,-74.03111111,Magdalena Cauca,Alto Magdalena,Río Bogotá,15/11/2001,
0021206980,SANTA CRUZ DE SIECHA [21206980],Agrometeorológica,"Automática con Telemetría, Convencional",En Mantenimiento,Guasca,4.785022,-73.870106,Magdalena Cauca,Alto Magdalena,Río Bogotá,08/11/2005,
0035025060,LA BOLSA [35025060],Climatológica Principal,"Automática con Telemetría, Convencional",En Mantenimiento,Choachí,4.587059,-73.995885,Orinoco,Meta,Río Guayuriba,15/05/1987,
0021205210,APTO TECHO  [21205210],Sinóptica Principal,Convencional,Suspendida,"Bogotá, D.C",4.633333333,-74.15,Magdalena Cauca,Alto Magdalena,Río Bogotá,15/01/1942,15/12/1959
0021201310,PREVENTORIO INFANT [21201310],Pluviométrica,Convencional,Activa,Sibaté,4.465444444,-74.2675,Magdalena Cauca,Alto Magdalena,Río Bogotá,15/03/1985,
0021205870,EL SALITRE [21205870],Meteorológica Especial,Convencional,Activa,Bojacá,4.738888889,-74.33427778,Magdalena Cauca,Alto Magdalena,Río Bogotá,15/09/1976,
0021205920,SUASUQUE [21205920],Meteorológica Especial,Convencional,Activa,Sopó,4.820833333,-73.96388889,Magdalena Cauca,Alto Magdalena,Río Bogotá,15/09/1976,
0021205990,EL LLANO [21205990],Meteorológica Especial,Convencional,Activa,Sopó,4.927777778,-73.95,Magdalena Cauca,Alto Magdalena,Río Bogotá,15/02/1977,
0021206970,UNISALLE CENTRO [21206970],Climatológica Ordinaria,Convencional,Suspendida,"Bogotá, D.C",4.595,-74.07036111,Magdalena Cauca,Alto Magdalena,Río Bogotá,24/04/2008,03/05/2019
0021201720,SAN JORGE GRANJA [21201720],Pluviográfica,Convencional,Activa,Soacha,4.516666667,-74.2,Magdalena Cauca,Alto Magdalena,Río Bogotá,15/04/1960,
0021206200,TUNDAMA [21206200],Climatológica Ordinaria,Convencional,Suspendida,Mosquera,4.733333333,-74.25,Magdalena Cauca,Alto Magdalena,Río Bogotá,15/08/1986,15/02/1992
0021206730,GIBRALTAR  [21206730],Climatológica Principal,Convencional,Activa,"Bogotá, D.C",4.65,-74.18333333,Magdalena Cauca,Alto Magdalena,Río Bogotá,15/02/2004,
0021200680,PTE LARGO  [21200680],Pluviométrica,Convencional,Suspendida,Madrid,4.733333333,-74.25,Magdalena Cauca,Alto Magdalena,Río Bogotá,15/11/1958,15/01/1961
0021201550,EL ROBLE [21201550],Pluviométrica,Convencional,Activa,Madrid,4.796666667,-74.22638889,Magdalena Cauca,Alto Magdalena,Río Bogotá,15/07/1985,
0021201470,FACATATIVA  [21201470],Pluviográfica,Convencional,Suspendida,Facatativá,4.833333333,-74.33333333,Magdalena Cauca,Alto Magdalena,Río Bogotá,15/07/1931,15/09/1947
0021205490,TESORO 2  [21205490],Climatológica Ordinaria,Convencional,Suspendida,Facatativá,4.8,-74.33333333,Magdalena Cauca,Alto Magdalena,Río Bogotá,15/02/1957,15/06/1969
0021206110,ENTRERRIOS  [21206110],Meteorológica Especial,Convencional,Suspendida,Mosquera,4.65,-74.25,Magdalena Cauca,Alto Magdalena,Río Bogotá,15/03/1975,15/12/1984
0021205060,ACUEDUCTO USAQUEN [21205060],Climatológica Ordinaria,Convencional,Suspendida,"Bogotá, D.C",4.7,-74.03333333,Magdalena Cauca,Alto Magdalena,Río Bogotá,15/03/1929,15/09/1959
0021200660,VIEJA LA  [21200660],Pluviométrica,Convencional,Activa,"Bogotá, D.C",4.65,-74.05,Magdalena Cauca,Alto Magdalena,Río Bogotá,15/01/1958,
0021205840,SENA K 30 [21205840],Meteorológica Especial,Convencional,Suspendida,"Bogotá, D.C",4.595361111,-74.11183333,Magdalena Cauca,Alto Magdalena,Río Bogotá,15/04/1985,10/05/2011
0021200140,SOPO YERBABUENITA  [21200140],Pluviométrica,Convencional,Suspendida,Sopó,4.916666667,-73.95,Magdalena Cauca,Alto Magdalena,Río Bogotá,15/04/1935,15/12/1952
0021200380,PANTANO REDONDO 2  [21200380],Pluviográfica,Convencional,Activa,Zipaquirá,5.033333333,-74.03333333,Magdalena Cauca,Alto Magdalena,Río Bogotá,15/08/1950,
0021205515,MERENGO  - AUT  [21205515],Climatológica Principal,Automática con Telemetría,Activa,Soacha,4.700288889,-74.17378611,Magdalena Cauca,Alto Magdalena,Río Bogotá,,
0021201150,EDIFICIO M MEJIA  [21201150],Pluviográfica,Convencional,Activa,"Bogotá, D.C",4.616666667,-74.08333333,Magdalena Cauca,Alto Magdalena,Río Bogotá,15/01/1981,
0021201610,SAN ISIDRO [21201610],Pluviométrica,Convencional,En Mantenimiento,Guasca,4.850288889,-73.89072222,Magdalena Cauca,Alto Magdalena,Río Bogotá,15/05/1987,
0021205120,TESORO 1-FACATATIV  [21205120],Climatológica Ordinaria,Convencional,Suspendida,Facatativá,4.8,-74.33333333,Magdalena Cauca,Alto Magdalena,Río Bogotá,15/02/1931,15/09/1947
0021206310,TISQUESUSA  [21206310],Climatológica Principal,Convencional,Activa,Facatativá,4.816666667,-74.31666667,Magdalena Cauca,Alto Magdalena,Río Bogotá,15/10/1986,
0035025050,LLANO LARGO [35025050],Climatológica Ordinaria,Convencional,Suspendida,Ubaque,4.482833333,-74.03027778,Orinoco,Meta,Río Guayuriba,15/04/1986,04/12/2025
0021206940,CIUDAD BOLIVAR [21206940],Climatológica Principal,Automática con Telemetría,Suspendida,"Bogotá, D.C",4.576861111,-74.17677778,Magdalena Cauca,Alto Magdalena,Río Bogotá,19/05/2005,24/08/2018
0021201590,ALCO  [21201590],Pluviográfica,Convencional,Activa,Zipaquirá,4.9,-74,Magdalena Cauca,Alto Magdalena,Río Bogotá,15/06/1980,
0021202110,HUERTAS LAS  [21202110],Pluviográfica,Convencional,Activa,Soacha,4.583333333,-74.23333333,Magdalena Cauca,Alto Magdalena,Río Bogotá,15/11/1968,
0021205580,VENADO ORO VIVERO [21205580],Climatológica Ordinaria,Convencional,Suspendida,"Bogotá, D.C",4.598361111,-74.06155556,Magdalena Cauca,Alto Magdalena,Río Bogotá,15/08/1965,
0021205650,TABIO  [21205650],Climatológica Principal,Convencional,Activa,Tabio,4.766666667,-73.93333333,Magdalena Cauca,Alto Magdalena,Río Bogotá,15/07/1970,
0021206530,BOSA  [21206530],Climatológica Ordinaria,Convencional,Activa,"Bogotá, D.C",4.6,-74.2,Magdalena Cauca,Alto Magdalena,Río Bogotá,15/05/1957,
0021205470,FONTIBON  [21205470],Climatológica Ordinaria,Convencional,Activa,"Bogotá, D.C",4.683333333,-74.15,Magdalena Cauca,Alto Magdalena,Río Bogotá,15/06/1972,
0021206630,BILBAO MAXIMO POTI [21206630],Climatológica Ordinaria,Convencional,Suspendida,"Bogotá, D.C",4.751138889,-74.09158333,Magdalena Cauca,Alto Magdalena,Río Bogotá,15/11/2001,12/04/2018
0021206480,CENTRO INVESTIGAC.  [21206480],Climatológica Ordinaria,Convencional,Activa,Chía,4.9,-74.01666667,Magdalena Cauca,Alto Magdalena,Río Bogotá,15/03/1993,
0021205300,PALO BLANCO  [21205300],Climatológica Ordinaria,Convencional,Activa,"Bogotá, D.C",4.516666667,-74.05,Magdalena Cauca,Alto Magdalena,Río Bogotá,15/12/1945,
0021205710,JARDIN BOTANICO [21205710],Climatológica Principal,"Automática con Telemetría, Convencional",Activa,"Bogotá, D.C",4.667867,-74.101034,Magdalena Cauca,Alto Magdalena,Río Bogotá,15/09/1974,
0021201210,EL HATO [21201210],Pluviométrica,Convencional,Suspendida,Tenjo,4.866388889,-74.15386111,Magdalena Cauca,Alto Magdalena,Río Bogotá,15/06/1978,28/05/2025
0021200180,EDIFICIO VIRREY SO  [21200180],Pluviométrica,Convencional,Suspendida,"Bogotá, D.C",4.6,-74.06666667,Magdalena Cauca,Alto Magdalena,Río Bogotá,15/03/1941,15/04/1949
0021201130,ALMAVIVA  [21201130],Pluviométrica,Convencional,Activa,Chía,4.866666667,-74.01666667,Magdalena Cauca,Alto Magdalena,Río Bogotá,15/04/1973,
0021200690,TESORO-VERTIENTES  [21200690],Pluviométrica,Convencional,Activa,Facatativá,4.8,-74.31666667,Magdalena Cauca,Alto Magdalena,Río Bogotá,15/08/1931,
0021201570,ESCUELA COL INGENIERIA [21201570],Pluviométrica,Convencional,Suspendida,"Bogotá, D.C",4.783333333,-74.05,Magdalena Cauca,Alto Magdalena,Río Bogotá,15/11/1981,15/04/1986
0021205020,BELKIS-MADRID  [21205020],Climatológica Ordinaria,Convencional,Suspendida,Madrid,4.8,-74.21666667,Magdalena Cauca,Alto Magdalena,Río Bogotá,15/07/1925,15/02/1948
0021200740,ZIPAQUIRA  [21200740],Pluviográfica,Convencional,Activa,Zipaquirá,5.016666667,-74,Magdalena Cauca,Alto Magdalena,Río Bogotá,15/02/1960,
0021200580,HORMONA-LAB  [21200580],Pluviométrica,Convencional,Activa,"Bogotá, D.C",4.683333333,-74.06666667,Magdalena Cauca,Alto Magdalena,Río Bogotá,15/04/1957,
0021206750,SAN BERNARDINO  [21206750],Climatológica Principal,Convencional,Activa,"Bogotá, D.C",4.616666667,-74.21666667,Magdalena Cauca,Alto Magdalena,Río Bogotá,15/02/2004,
0021206060,CASABLANCA [21206060],Meteorológica Especial,Convencional,Activa,Madrid,4.717111111,-74.25333333,Magdalena Cauca,Alto Magdalena,Río Bogotá,15/09/1976,
0021202190,JUAN REY - AUT [21202190],Climatológica Ordinaria,Automática con Telemetría,Activa,"Bogotá, D.C",4.51872,-74.08867,Magdalena Cauca,Alto Magdalena,Río Bogotá,01/02/2007,
0021202220,PARAISO - AUT [21202220],Climatológica Ordinaria,Automática con Telemetría,Activa,"Bogotá, D.C",4.62789,-74.0587,Magdalena Cauca,Alto Magdalena,Río Bogotá,01/10/2000,
0021201040,TOCANCIPA  [21201040],Pluviométrica,Convencional,Activa,Tocancipá,4.966666667,-73.91666667,Magdalena Cauca,Alto Magdalena,Río Bogotá,15/11/1970,
0021200450,ZUQUE EL  [21200450],Pluviométrica,Convencional,Suspendida,"Bogotá, D.C",4.55,-74.08333333,Magdalena Cauca,Alto Magdalena,Río Bogotá,15/02/1952,15/10/1958
0021201750,CHARQUITO  [21201750],Pluviométrica,Convencional,Activa,Soacha,4.55,-74.28333333,Magdalena Cauca,Alto Magdalena,Río Bogotá,15/01/1988,
0021200300,SUBA-TIBABUYES  [21200300],Pluviométrica,Convencional,Suspendida,"Bogotá, D.C",4.733333333,-74.08333333,Magdalena Cauca,Alto Magdalena,Río Bogotá,15/09/1947,15/02/1960
0021201140,LA ESPERANZA [21201140],Pluviométrica,Convencional,Suspendida,Tenjo,4.802166667,-74.17997222,Magdalena Cauca,Alto Magdalena,Río Bogotá,15/07/1974,30/05/2025
0021201110,USAQUEN  [21201110],Pluviométrica,Convencional,Activa,"Bogotá, D.C",4.683333333,-74.01666667,Magdalena Cauca,Alto Magdalena,Río Bogotá,15/06/1955,
0021205230,OBS MET NACIONAL [21205230],Climatológica Principal,Convencional,Suspendida,"Bogotá, D.C",4.633333333,-74.1,Magdalena Cauca,Alto Magdalena,Río Bogotá,15/03/1941,15/11/1993
0021206910,UNIV ANTON. NARIÑO  [21206910],Climatológica Ordinaria,Convencional,Activa,"Bogotá, D.C",4.633333333,-74.05,Magdalena Cauca,Alto Magdalena,Río Bogotá,04/02/2007,
0021205310,CARO LA  [21205310],Climatológica Ordinaria,Convencional,Suspendida,Chía,4.866666667,-74.03333333,Magdalena Cauca,Alto Magdalena,Río Bogotá,15/01/1947,15/01/1955
0021202180,QUIBA  - AUT  [21202180],Climatológica Ordinaria,Automática con Telemetría,Activa,"Bogotá, D.C",4.54311,-74.15601,Magdalena Cauca,Alto Magdalena,Río Bogotá,01/10/2000,
0021200440,PRADERA LA  [21200440],Pluviométrica,Convencional,Activa,Subachoque,5,-74.13333333,Magdalena Cauca,Alto Magdalena,Río Bogotá,15/09/1951,
0021206510,CASD [21206510],Climatológica Principal,Convencional,Suspendida,"Bogotá, D.C",4.6,-74.08333333,Magdalena Cauca,Alto Magdalena,Río Bogotá,15/12/1995,15/08/2002
0021201060,PANTANO REDONDO 1 [21201060],Pluviográfica,Convencional,Activa,Zipaquirá,5.04325,-74.03338889,Magdalena Cauca,Alto Magdalena,Río Bogotá,15/01/1951,
0021201980,GUADALUPE - AUT [21201980],Climatológica Ordinaria,Automática con Telemetría,Activa,"Bogotá, D.C",4.59157,-74.05471,Magdalena Cauca,Alto Magdalena,Río Bogotá,01/09/2007,
0021205930,VILLA ROSA [21205930],Meteorológica Especial,Convencional,Suspendida,Cota,4.833333333,-74.1,Magdalena Cauca,Alto Magdalena,Río Bogotá,15/09/1976,15/09/1992
0021201450,UNIV JAVERIANA  [21201450],Pluviográfica,Convencional,Suspendida,"Bogotá, D.C",4.65,-74.06666667,Magdalena Cauca,Alto Magdalena,Río Bogotá,15/07/1938,15/08/1953
0021201050,LOURDES [21201050],Pluviométrica,Convencional,Activa,Gachancipá,4.982888889,-73.86466667,Magdalena Cauca,Alto Magdalena,Río Bogotá,15/03/1985,
0021200370,PANTANO REDONDO 3  [21200370],Pluviográfica,Convencional,Activa,Zipaquirá,5.033333333,-74.03333333,Magdalena Cauca,Alto Magdalena,Río Bogotá,15/01/1951,
0021206830,DELIRIO EL  [21206830],Climatológica Principal,Convencional,Activa,"Bogotá, D.C",4.566666667,-74.06666667,Magdalena Cauca,Alto Magdalena,Río Bogotá,15/02/2004,
0021200210,STA TERESA HDA  [21200210],Pluviométrica,Convencional,Suspendida,Gachancipá,5,-73.88333333,Magdalena Cauca,Alto Magdalena,Río Bogotá,15/04/1942,15/11/1950
0021200130,DELIRIO  [21200130],Pluviométrica,Convencional,Activa,"Bogotá, D.C",4.55,-74.05,Magdalena Cauca,Alto Magdalena,Río Bogotá,15/05/1933,
0021205690,CAMAVIEJA  [21205690],Climatológica Ordinaria,Convencional,Activa,"Bogotá, D.C",4.616666667,-74.1,Magdalena Cauca,Alto Magdalena,Río Bogotá,15/11/1957,
0021205270,SAN BARTOLOME  [21205270],Climatológica Ordinaria,Convencional,Suspendida,"Bogotá, D.C",4.616666667,-74.06666667,Magdalena Cauca,Alto Magdalena,Río Bogotá,15/01/1923,15/12/1941
0035020400,ANGULO EL  [35020400],Pluviométrica,Convencional,Activa,La Calera,4.783333333,-73.86666667,Magdalena Cauca,Alto Magdalena,Río Bogotá,15/02/1967,
0021200410,ROSAL EL  [21200410],Pluviométrica,Convencional,Suspendida,Subachoque,4.866666667,-74.26666667,Magdalena Cauca,Alto Magdalena,Río Bogotá,15/07/1951,15/12/1969
0021201630,GRANJA TABIO [21201630],Pluviográfica,Convencional,Activa,Tabio,4.933055556,-74.06561111,Magdalena Cauca,Alto Magdalena,Río Bogotá,15/05/1987,
0021200750,BOJACA  [21200750],Pluviométrica,Convencional,Activa,Bojacá,4.733333333,-74.33333333,Magdalena Cauca,Alto Magdalena,Río Bogotá,15/03/1960,
0021205860,CORZO EL [21205860],Meteorológica Especial,Convencional,Suspendida,"Bogotá, D.C",4.65,-74.2,Magdalena Cauca,Alto Magdalena,Río Bogotá,15/09/1976,15/02/1992
0021206490,HATO ALTO [21206490],Meteorológica Especial,Convencional,Suspendida,Tenjo,4.835083333,-74.13991667,Magdalena Cauca,Alto Magdalena,Río Bogotá,15/08/1993,31/12/2012
0021200110,SAN RAFAEL 1  [21200110],Pluviométrica,Convencional,Activa,La Calera,4.7,-73.98333333,Magdalena Cauca,Alto Magdalena,Río Bogotá,15/05/1933,
0021205370,PANTANO REDONDO  [21205370],Climatológica Ordinaria,Convencional,Activa,Zipaquirá,5.033333333,-74.03333333,Magdalena Cauca,Alto Magdalena,Río Bogotá,15/01/1957,
0021205960,TACHI [21205960],Meteorológica Especial,Convencional,Activa,Subachoque,4.939055556,-74.15258333,Magdalena Cauca,Alto Magdalena,Río Bogotá,15/02/1977,
0021201260,PORVENIR EL  [21201260],Pluviométrica,Convencional,Activa,El Colegio,4.55,-74.31666667,Magdalena Cauca,Alto Magdalena,Río Sumapaz,15/02/1952,
0021200540,MERCED LA  [21200540],Pluviométrica,Convencional,Suspendida,Bojacá,4.633333333,-74.31666667,Magdalena Cauca,Alto Magdalena,Río Bogotá,15/11/1956,15/09/1969
0021201070,EL CORAZON [21201070],Pluviométrica,Convencional,Activa,Facatativá,4.865361111,-74.28941667,Magdalena Cauca,Alto Magdalena,Río Bogotá,15/07/1974,
0021200640,MONSERRATE  [21200640],Pluviométrica,Convencional,Suspendida,"Bogotá, D.C",4.6,-74.06666667,Magdalena Cauca,Alto Magdalena,Río Bogotá,15/01/1958,15/10/1960
0021201390,MADRID  [21201390],Pluviométrica,Convencional,Suspendida,Madrid,4.733333333,-74.3,Magdalena Cauca,Alto Magdalena,Río Bogotá,15/04/1965,15/10/1980
0021206570,AEROPUERTO CATAM [21206570],Climatológica Principal,Convencional,Suspendida,"Bogotá, D.C",4.705583333,-74.15066667,Magdalena Cauca,Alto Magdalena,Río Bogotá,15/01/2001,03/05/2019
0035035040,CHINGAZA  [35035040],Climatológica Ordinaria,Convencional,Activa,Fómeque,4.483333333,-73.9,Orinoco,Meta,Río Guayuriba,15/01/1968,
0021201960,SALITRE CASA BOMBA  [21201960],Pluviográfica,Convencional,Activa,"Bogotá, D.C",4.666666667,-74.06666667,Magdalena Cauca,Alto Magdalena,Río Bogotá,15/01/1975,
0021202050,QUIBA  [21202050],Pluviográfica,Convencional,Activa,"Bogotá, D.C",4.533333333,-74.16666667,Magdalena Cauca,Alto Magdalena,Río Bogotá,15/01/1990,
0021205750,REP LOS MUCHACHOS [21205750],Climatológica Ordinaria,Convencional,Suspendida,Funza,4.733333333,-74.16666667,Magdalena Cauca,Alto Magdalena,Río Bogotá,15/05/1976,15/06/1985
0021200020,COCLI EL  [21200020],Pluviométrica,Convencional,Suspendida,Funza,4.7,-74.21666667,Magdalena Cauca,Alto Magdalena,Río Bogotá,15/05/1986,15/02/1906
0021206650,COLEGIO SAN CAYETANO [21206650],Climatológica Ordinaria,Convencional,Activa,"Bogotá, D.C",4.516752778,-74.088222222,Magdalena Cauca,Alto Magdalena,Río Bogotá,15/11/2001,
0021205519,SAN FORTUNATO  - AUT  [21205519],Climatológica Principal,Automática con Telemetría,Activa,Sibaté,4.452111111,-74.27228806,Magdalena Cauca,Alto Magdalena,Río Bogotá,,
0023065160,EL ACOMODO [23065160],Climatológica Principal,Convencional,Activa,La Vega,5.016666667,-74.33333333,Magdalena Cauca,Medio Magdalena,Río Negro,15/06/2000,
0021200240,VERJON EL  [21200240],Pluviométrica,Convencional,Activa,"Bogotá, D.C",4.583333333,-74.01666667,Magdalena Cauca,Alto Magdalena,Río Bogotá,15/02/1946,
0021205013,UNISALLE NORTE [21205013],Climatológica Ordinaria,Convencional,Suspendida,"Bogotá, D.C",4.794444444,-74.03055556,Magdalena Cauca,Alto Magdalena,Río Bogotá,14/12/2009,07/11/2012
0021200560,FONTIBON  [21200560],Pluviométrica,Convencional,Suspendida,"Bogotá, D.C",4.7,-74.15,Magdalena Cauca,Alto Magdalena,Río Bogotá,15/01/1957,15/10/1959
0021205420,TIBAITATA [21205420],Agrometeorológica,"Automática con Telemetría, Convencional",Activa,Mosquera,4.688662,-74.205626,Magdalena Cauca,Alto Magdalena,Río Bogotá,15/03/1954,
0021206210,FLORES COLOMBIANAS [21206210],Meteorológica Especial,Convencional,Suspendida,Funza,4.73625,-74.15733333,Magdalena Cauca,Alto Magdalena,Río Bogotá,15/07/1986,15/02/2013
0021205950,TIBACHOQUE HACIENDA [21205950],Meteorológica Especial,Convencional,Suspendida,Funza,4.759055556,-74.20516667,Magdalena Cauca,Alto Magdalena,Río Bogotá,15/02/1977,10/12/2008
0021206150,MOLINOS DEL NORTE [21206150],Climatológica Principal,Convencional,Suspendida,"Bogotá, D.C",4.7,-74.05,Magdalena Cauca,Alto Magdalena,Río Bogotá,15/10/1983,15/04/1986
0021202000,SIMAYA  [21202000],Pluviométrica,Convencional,Activa,La Calera,4.716666667,-73.88333333,Orinoco,Meta,Río Guayuriba,15/01/1987,
0021200480,AV JIMENEZ  [21200480],Pluviométrica,Convencional,Suspendida,"Bogotá, D.C",4.6,-74.06666667,Magdalena Cauca,Alto Magdalena,Río Bogotá,15/01/1955,15/07/1971
0021206280,ACAPULCO [21206280],Climatológica Principal,"Automática con Telemetría, Convencional",Activa,Bojacá,4.64823,-74.32035,Magdalena Cauca,Alto Magdalena,Río Bogotá,15/02/1990,
0021201270,TIBAR EL [21201270],Pluviométrica,Convencional,Suspendida,Madrid,4.816666667,-74.23333333,Magdalena Cauca,Alto Magdalena,Río Bogotá,15/12/1980,15/02/2002
0021200650,CONTADOR  [21200650],Pluviométrica,Convencional,Activa,"Bogotá, D.C",4.7,-74.03333333,Magdalena Cauca,Alto Magdalena,Río Bogotá,15/01/1958,
0021206860,MONTEBLANCO  [21206860],Climatológica Principal,Convencional,Activa,"Bogotá, D.C",4.483333333,-74.11666667,Magdalena Cauca,Alto Magdalena,Río Bogotá,15/02/2004,
0021205140,MOSQUERA  [21205140],Climatológica Ordinaria,Convencional,Suspendida,Mosquera,4.716666667,-74.23333333,Magdalena Cauca,Alto Magdalena,Río Bogotá,15/09/1936,15/11/1950
0021205640,ALBANIA  [21205640],Climatológica Ordinaria,Convencional,Suspendida,Sopó,4.833333333,-73.95,Magdalena Cauca,Alto Magdalena,Río Bogotá,15/01/1958,15/01/1964
0021201030,STA TERESA  [21201030],Pluviográfica,Convencional,Activa,La Calera,4.666666667,-73.93333333,Orinoco,Meta,Río Guayuriba,15/09/1970,
0021200670,CORTIJO EL  [21200670],Pluviométrica,Convencional,Suspendida,"Bogotá, D.C",4.733333333,-74.13333333,Magdalena Cauca,Alto Magdalena,Río Bogotá,15/04/1958,15/10/1960
0021206770,PONTON SAN JOSE  [21206770],Climatológica Principal,Convencional,Activa,"Bogotá, D.C",4.616666667,-74.2,Magdalena Cauca,Alto Magdalena,Río Bogotá,15/08/2003,
0021205160,RAMADA LA  [21205160],Climatológica Ordinaria,Convencional,Activa,Funza,4.716666667,-74.18333333,Magdalena Cauca,Alto Magdalena,Río Bogotá,15/12/1937,
0021205430,CORZO STA TECLA  [21205430],Climatológica Ordinaria,Convencional,Suspendida,Facatativá,4.766666667,-74.33333333,Magdalena Cauca,Alto Magdalena,Río Bogotá,15/01/1958,15/11/1967
0021205800,BOMBEROS DEL NORTE [21205800],Meteorológica Especial,Convencional,Suspendida,"Bogotá, D.C",4.65,-74.06666667,Magdalena Cauca,Alto Magdalena,Río Bogotá,15/11/1972,15/11/1983
0021205170,PORVENIR EL  [21205170],Climatológica Ordinaria,Convencional,Suspendida,"Bogotá, D.C",4.7,-74.03333333,Magdalena Cauca,Alto Magdalena,Río Bogotá,15/02/1939,15/02/1944
0021200790,LAGUNA LA  [21200790],Pluviométrica,Convencional,Suspendida,"Bogotá, D.C",4.65,-74.13333333,Magdalena Cauca,Alto Magdalena,Río Bogotá,15/07/1960,15/12/1995
0021205517,PARQUE SOPO  - AUT  [21205517],Climatológica Principal,Automática con Telemetría,Activa,Sopó,4.788157222,-74.05005889,Magdalena Cauca,Alto Magdalena,Río Bogotá,,
0021206800,MAKRO  [21206800],Climatológica Principal,Convencional,Activa,"Bogotá, D.C",4.6,-74.15,Magdalena Cauca,Alto Magdalena,Río Bogotá,15/08/2003,
0021205610,MUNA  [21205610],Climatológica Principal,Convencional,Activa,Sibaté,4.55,-74.25,Magdalena Cauca,Alto Magdalena,Río Bogotá,15/07/1966,
0021200800,SAN JOSE  [21200800],Pluviográfica,Convencional,Activa,Guasca,4.983333333,-73.9,Magdalena Cauca,Alto Magdalena,Río Bogotá,15/10/1960,
0035025502,LA ESMERALDA-  - AUT  [35025502],Climatológica Principal,Automática con Telemetría,Activa,"Bogotá, D.C",4.559661944,-73.99972222,Orinoco,Meta,Río Guayuriba,,
0021200770,TORCA  [21200770],Pluviométrica,Convencional,Activa,"Bogotá, D.C",4.783333333,-74.03333333,Magdalena Cauca,Alto Magdalena,Río Bogotá,15/02/1960,
0021200510,SIBATE APOSTOLICA  [21200510],Pluviográfica,Convencional,Activa,Sibaté,4.516666667,-74.25,Magdalena Cauca,Alto Magdalena,Río Bogotá,15/05/1956,
0021205250,LUMBRE LA  [21205250],Climatológica Ordinaria,Convencional,Suspendida,"Bogotá, D.C",4.616666667,-74.18333333,Magdalena Cauca,Alto Magdalena,Río Bogotá,15/03/1955,15/01/1988
0021206560,INEM KENNEDY [21206560],Climatológica Principal,"Automática con Telemetría, Convencional",Activa,"Bogotá, D.C",4.62547,-74.156066,Magdalena Cauca,Alto Magdalena,Río Bogotá,15/07/1998,
0021206640,SAN JOSE [21206640],Climatológica Ordinaria,Convencional,Suspendida,"Bogotá, D.C",4.501555556,-74.11930556,Magdalena Cauca,Alto Magdalena,Río Bogotá,15/11/2001,10/05/2011
0021205050,CEDRO EL-ZIPAQUIRA  [21205050],Climatológica Ordinaria,Convencional,Suspendida,Zipaquirá,5.033333333,-74,Magdalena Cauca,Alto Magdalena,Río Bogotá,15/02/1946,15/12/1955
0021206230,VEGAS LAS HACIENDA [21206230],Climatológica Ordinaria,Convencional,Suspendida,"Bogotá, D.C",4.661666667,-74.15141944,Magdalena Cauca,Alto Magdalena,Río Bogotá,15/08/1987,10/05/2011
0021202080,CONEJERA LA  [21202080],Pluviográfica,Convencional,Activa,"Bogotá, D.C",4.766666667,-74.06666667,Magdalena Cauca,Alto Magdalena,Río Bogotá,15/05/1990,
0021200810,VERAGUAS  [21200810],Pluviométrica,Convencional,Suspendida,"Bogotá, D.C",4.6,-74.1,Magdalena Cauca,Alto Magdalena,Río Bogotá,15/11/1960,15/03/1966
0021202240,UAN SEDE CIRCUNVALAR  - AUT  [21202240],Climatológica Ordinaria,Automática con Telemetría,Activa,"Bogotá, D.C",4.63546,-74.05746,Magdalena Cauca,Alto Magdalena,Río Bogotá,01/09/2007,
0021205522,TABIO-21205522  - AUT  [21205522],Climatológica Principal,Automática con Telemetría,Activa,Tabio,4.918321667,-74.02864944,Magdalena Cauca,Alto Magdalena,Río Bogotá,,
0021201400,COMUNA LA  [21201400],Pluviométrica,Convencional,Suspendida,Subachoque,4.85,-74.26666667,Magdalena Cauca,Alto Magdalena,Río Bogotá,15/03/1965,15/12/1978
0021201410,ACANDY  [21201410],Pluviométrica,Convencional,Activa,Nemocón,5.05,-73.88333333,Magdalena Cauca,Alto Magdalena,Río Bogotá,15/10/1977,
0021200850,CISACA  [21200850],Pluviográfica,Convencional,Activa,"Bogotá, D.C",4.483333333,-74.08333333,Magdalena Cauca,Alto Magdalena,Río Bogotá,15/12/1962,
0021201990,TEUSACA  [21201990],Pluviométrica,Convencional,Activa,La Calera,4.65,-73.95,Orinoco,Meta,Río Guayuriba,15/05/1987,
0021205340,ACUEDUCTO BOSA  [21205340],Climatológica Ordinaria,Convencional,Activa,"Bogotá, D.C",4.616666667,-74.18333333,Magdalena Cauca,Alto Magdalena,Río Bogotá,15/01/1961,
0021200050,OBSE.ASTR.NAL-ANT.  [21200050],Pluviométrica,Convencional,Suspendida,"Bogotá, D.C",4.6,-74.08333333,Magdalena Cauca,Alto Magdalena,Río Bogotá,15/01/1901,15/01/1922
0021205440,LOYOLA  [21205440],Climatológica Ordinaria,Convencional,Suspendida,Facatativá,4.8,-74.28333333,Magdalena Cauca,Alto Magdalena,Río Bogotá,15/07/1956,15/05/1957
0023060210,LOS ALEROS [23060210],Pluviométrica,Convencional,Activa,La Vega,4.966666667,-74.33333333,Magdalena Cauca,Medio Magdalena,Río Negro,15/05/1982,
0021206720,PARQUE NACIONAL  [21206720],Climatológica Principal,Convencional,Activa,"Bogotá, D.C",4.616666667,-74.05,Magdalena Cauca,Alto Magdalena,Río Bogotá,15/02/2004,
0021200460,VIRGINIA LA  [21200460],Pluviométrica,Convencional,Suspendida,Tabio,4.916666667,-74.06666667,Magdalena Cauca,Alto Magdalena,Río Bogotá,15/04/1952,15/11/1970
0035020330,BOLSA LA [35020330],Pluviométrica,Convencional,Suspendida,Choachí,4.575416667,-73.98141667,Orinoco,Meta,Río Guayuriba,15/09/1985,15/05/1987
0021202070,SAUCEDAL 2  [21202070],Pluviométrica,Convencional,Activa,"Bogotá, D.C",4.65,-74.15,Magdalena Cauca,Alto Magdalena,Río Bogotá,15/04/1990,
0021205830,MUZU CENTRO SALUD [21205830],Meteorológica Especial,Convencional,Suspendida,"Bogotá, D.C",4.6,-74.13333333,Magdalena Cauca,Alto Magdalena,Río Bogotá,15/11/1972,15/10/1979
0021201530,FUNZA  [21201530],Pluviométrica,Convencional,Suspendida,Funza,4.7,-74.18333333,Magdalena Cauca,Alto Magdalena,Río Bogotá,15/01/1982,15/12/1893
0021200080,ARRAYAN-SAN FCO  [21200080],Pluviométrica,Convencional,Activa,"Bogotá, D.C",4.583333333,-74.03333333,Magdalena Cauca,Alto Magdalena,Río Bogotá,15/01/1925,
0021206300,DONA JUANA  [21206300],Climatológica Principal,Convencional,Activa,"Bogotá, D.C",4.5,-74.16666667,Magdalena Cauca,Alto Magdalena,Río Bogotá,15/03/1989,
0021201360,STA INES  [21201360],Pluviométrica,Convencional,Activa,Tenjo,4.816666667,-74.13333333,Magdalena Cauca,Alto Magdalena,Río Bogotá,15/03/1980,
0021205791,EL DORADO CATAM [21205791],Climatológica Principal,Automática con Telemetría,Activa,"Bogotá, D.C",4.705583,-74.150667,Magdalena Cauca,Alto Magdalena,Río Bogotá,31/10/2002,
0021201660,FUTE  [21201660],Pluviográfica,Convencional,Activa,Soacha,4.6,-74.28333333,Magdalena Cauca,Alto Magdalena,Río Bogotá,15/09/1959,
0021206960,IDEAM BOGOTA CENTRO- AUT [21206960],Climatológica Principal,Automática con Telemetría,Suspendida,"Bogotá, D.C",4.6,-74.06666667,Magdalena Cauca,Alto Magdalena,Río Bogotá,11/04/2005,
0021205521,SANTA HELENA  - AUT  [21205521],Climatológica Principal,Automática con Telemetría,Activa,La Calera,4.737809722,-73.93579389,Magdalena Cauca,Alto Magdalena,Río Bogotá,,
0021201600,SEDE IDEAM KRA 10 [21201600],Pluviográfica,Convencional,Suspendida,"Bogotá, D.C",4.607111111,-74.07288889,Magdalena Cauca,Alto Magdalena,Río Bogotá,15/09/1986,03/05/2019
0021205280,TENJO  [21205280],Climatológica Ordinaria,Convencional,Suspendida,Tenjo,4.866666667,-74.15,Magdalena Cauca,Alto Magdalena,Río Bogotá,15/08/1943,15/12/1949
0021205510,FUTE  [21205510],Climatológica Ordinaria,Convencional,Suspendida,Soacha,4.6,-74.28333333,Magdalena Cauca,Alto Magdalena,Río Bogotá,15/09/1959,15/01/1968
0035020320,LLANO LARGO [35020320],Pluviométrica,Convencional,Suspendida,Ubaque,4.482833333,-74.03027778,Orinoco,Meta,Río Guayuriba,15/11/1984,15/04/1986
0021205890,GUANATA [21205890],Meteorológica Especial,Convencional,Suspendida,Chía,4.885944444,-74.05433333,Magdalena Cauca,Alto Magdalena,Río Bogotá,15/09/1976,
0021206430,REYES CATOLICOS  [21206430],Climatológica Ordinaria,Convencional,Activa,"Bogotá, D.C",4.716666667,-74.03333333,Magdalena Cauca,Alto Magdalena,Río Bogotá,15/09/1991,
0021205770,BASE AEREA MADRID [21205770],Climatológica Ordinaria,Convencional,Activa,Madrid,4.728805556,-74.2725,Magdalena Cauca,Alto Magdalena,Río Bogotá,15/07/1974,
0021206260,C.UNIV.AGROP-UDCA [21206260],Climatológica Ordinaria,Convencional,Activa,"Bogotá, D.C",4.798638889,-74.04972222,Magdalena Cauca,Alto Magdalena,Río Bogotá,15/12/1988,
0021205700,GUASCA [21205700],Climatológica Principal,"Automática con Telemetría, Convencional",Activa,Guasca,4.877953,-73.864453,Magdalena Cauca,Alto Magdalena,Río Bogotá,15/07/1974,
0035020280,CHOACHI [35020280],Pluviométrica,Convencional,Activa,Choachí,4.522916667,-73.92658333,Orinoco,Meta,Río Guayuriba,15/11/1981,
0035020440,LOS AMARILLOS [35020440],Pluviométrica,Convencional,Activa,"Bogotá, D.C",4.766666667,-74.21666667,Magdalena Cauca,Alto Magdalena,Río Bogotá,15/01/1966,
0021200390,BELLO HORIZONTE  [21200390],Pluviométrica,Convencional,Activa,Tena,4.616666667,-74.35,Magdalena Cauca,Alto Magdalena,Río Bogotá,15/01/1960,
0021208480,KENNEDY - AUT [21208480],HidroMeteorologica,Automática con Telemetría,Activa,"Bogotá, D.C",4.61104201,-74.178333,Magdalena Cauca,Alto Magdalena,Río Bogotá,01/03/2003,
0021200170,LA ALDEA [21200170],Pluviométrica,Convencional,Activa,Tenjo,4.816666667,-74.05,Magdalena Cauca,Alto Magdalena,Río Bogotá,15/01/1940,
0021201020,ALTO CHARCO  [21201020],Pluviométrica,Convencional,Activa,Sibaté,4.55,-74.28333333,Magdalena Cauca,Alto Magdalena,Río Bogotá,15/04/1970,
0021201320,LA UNION [21201320],Pluviométrica,Convencional,Activa,Sibaté,4.509361111,-74.26880556,Magdalena Cauca,Alto Magdalena,Río Bogotá,15/03/1985,
0021206020,SANTILLANA [21206020],Meteorológica Especial,Convencional,Activa,Tabio,4.898527778,-74.10483333,Magdalena Cauca,Alto Magdalena,Río Bogotá,15/02/1977,
0021205900,INDUQUIMICA [21205900],Meteorológica Especial,Convencional,Suspendida,Soacha,4.583333333,-74.23333333,Magdalena Cauca,Alto Magdalena,Río Bogotá,15/09/1976,15/12/1977
0021206030,SAN CAYETANO [21206030],Meteorológica Especial,Convencional,Activa,Subachoque,4.916833333,-74.18166667,Magdalena Cauca,Alto Magdalena,Río Bogotá,15/02/1977,
0021202280,SEDE IDEAM CALLE 25D KRA [21202280],Pluviométrica,Convencional,Activa,"Bogotá, D.C",4.684,-74.129,Magdalena Cauca,Alto Magdalena,Río Bogotá,12/12/2016,
0021206990,TIBAITATA - AUT [21206990],Agrometeorológica,Automática con Telemetría,Suspendida,Mosquera,4.68863,-74.20559,Magdalena Cauca,Alto Magdalena,Río Bogotá,27/10/2004,
0021206090,ZIPAQUIRA  [21206090],Climatológica Ordinaria,Convencional,Suspendida,Zipaquirá,5.016666667,-74.01666667,Magdalena Cauca,Alto Magdalena,Río Bogotá,15/01/1931,15/12/1954
0021200550,UNION LA-EL ROSAL  [21200550],Pluviométrica,Convencional,Activa,Subachoque,4.866666667,-74.25,Magdalena Cauca,Alto Magdalena,Río Bogotá,15/01/1960,
0035035050,CHUZA  [35035050],Climatológica Ordinaria,Convencional,Activa,Fómeque,4.5,-73.88333333,Orinoco,Meta,Río Guayuriba,15/10/1968,
0021200350,AVDA CARACAS CL  [21200350],Pluviométrica,Convencional,Suspendida,"Bogotá, D.C",4.633333333,-74.1,Magdalena Cauca,Alto Magdalena,Río Bogotá,15/05/1949,15/05/1952
0021201240,SANTA MARIA DE USME [21201240],Pluviométrica,Convencional,Activa,"Bogotá, D.C",4.481305556,-74.12627778,Magdalena Cauca,Alto Magdalena,Río Bogotá,15/12/1977,
0021206070,MISIONES  [21206070],Climatológica Ordinaria,Convencional,Activa,El Colegio,4.566666667,-74.3,Magdalena Cauca,Alto Magdalena,Río Bogotá,15/02/1977,
0021206760,CIERRE  [21206760],Climatológica Principal,Convencional,Activa,"Bogotá, D.C",4.633333333,-74.23333333,Magdalena Cauca,Alto Magdalena,Río Bogotá,15/08/2003,
0021201880,VILLA PAULA  [21201880],Pluviográfica,Convencional,Activa,Tabio,4.933333333,-74.08333333,Magdalena Cauca,Alto Magdalena,Río Bogotá,15/01/1992,
0021206810,SAN BENITO  - AUT  [21206810],HidroMeteorologica,Automática con Telemetría,Activa,"Bogotá, D.C",4.56365303,-74.13845,Magdalena Cauca,Alto Magdalena,Río Bogotá,01/12/2003,
0021202020,SERREZUELA  [21202020],Pluviográfica,Convencional,Activa,"Bogotá, D.C",4.766666667,-74.01666667,Magdalena Cauca,Alto Magdalena,Río Bogotá,15/11/1989,
0021206170,CLARETIANO [21206170],Climatológica Ordinaria,Convencional,Suspendida,"Bogotá, D.C",4.6,-74.2,Magdalena Cauca,Alto Magdalena,Río Bogotá,15/08/1984,15/08/1985
0021206270,FRAY BARTOLOME  [21206270],Meteorológica Especial,Convencional,Activa,"Bogotá, D.C",4.7,-74.06666667,Magdalena Cauca,Alto Magdalena,Río Bogotá,15/04/1989,
0021202230,UAN SEDE USME  - AUT  [21202230],Climatológica Ordinaria,Automática con Telemetría,Activa,"Bogotá, D.C",4.48152,-74.12708,Magdalena Cauca,Alto Magdalena,Río Bogotá,01/10/2000,
0021200030,RUBI EL  [21200030],Pluviométrica,Convencional,Suspendida,Funza,4.7,-74.2,Magdalena Cauca,Alto Magdalena,Río Bogotá,15/01/1979,15/12/1917
0021201540,BOSA  [21201540],Pluviográfica,Convencional,Suspendida,"Bogotá, D.C",4.6,-74.2,Magdalena Cauca,Alto Magdalena,Río Bogotá,15/05/1957,15/12/1958
0021206240,CENTRO GAVIOTAS [21206240],Meteorológica Especial,Convencional,Suspendida,"Bogotá, D.C",4.6,-74.06666667,Magdalena Cauca,Alto Magdalena,Río Bogotá,15/08/1987,15/09/1992
0021206600,NUEVA GENERACION [21206600],Climatológica Principal,"Automática con Telemetría, Convencional",Activa,"Bogotá, D.C",4.786594,-74.102247,Magdalena Cauca,Alto Magdalena,Río Bogotá,15/11/2001,
0035020370,LAG DE UBAQUE  [35020370],Pluviométrica,Convencional,Activa,Ubaque,4.5,-73.93333333,Orinoco,Meta,Río Guayuriba,15/01/1970,
0021206670,COL BUCKINGHAM [21206670],Climatológica Ordinaria,Convencional,Suspendida,"Bogotá, D.C",4.792055556,-74.04958333,Magdalena Cauca,Alto Magdalena,Río Bogotá,15/11/2001,12/11/2009
0021205010,OBS ASTRONOM  [21205010],Climatológica Ordinaria,Convencional,Suspendida,"Bogotá, D.C",4.6,-74.08333333,Magdalena Cauca,Alto Magdalena,Río Bogotá,15/01/1922,15/12/1944
0021200070,CHIA  [21200070],Pluviométrica,Convencional,Suspendida,Chía,4.833333333,-74.1,Magdalena Cauca,Alto Magdalena,Río Bogotá,15/10/1941,15/12/1942
0035020050,CHIPAQUE  [35020050],Pluviográfica,Convencional,Activa,Chipaque,4.45,-74.05,Orinoco,Meta,Río Guayuriba,15/01/1956,
0021206820,MEJICO  [21206820],Climatológica Principal,Convencional,Activa,"Bogotá, D.C",4.55,-74.13333333,Magdalena Cauca,Alto Magdalena,Río Bogotá,15/02/2004,
0021205512,EL SOCHE  - AUT  [21205512],Climatológica Principal,Automática con Telemetría,Activa,"Bogotá, D.C",4.469316389,-74.07945417,Magdalena Cauca,Alto Magdalena,Río Bogotá,,
0021202090,ISLA LA  [21202090],Pluviométrica,Convencional,Activa,"Bogotá, D.C",4.633333333,-74.21666667,Magdalena Cauca,Alto Magdalena,Río Bogotá,15/10/1965,
0021205910,LA COSECHA [21205910],Climatológica Principal,"Automática con Telemetría, Convencional",Activa,Zipaquirá,4.98922,-74.00119,Magdalena Cauca,Alto Magdalena,Río Bogotá,15/09/1976,
0021200120,AY SAN FRANCISCO  [21200120],Pluviométrica,Convencional,Activa,"Bogotá, D.C",4.583333333,-74.03333333,Magdalena Cauca,Alto Magdalena,Río Bogotá,15/05/1933,
0021206040,ESAP [21206040],Meteorológica Especial,Convencional,Suspendida,"Bogotá, D.C",4.646777778,-74.09636111,Magdalena Cauca,Alto Magdalena,Río Bogotá,15/04/1985,08/09/2009
0021206700,CEA CENT.EST.AERO. [21206700],Climatológica Principal,Convencional,Suspendida,"Bogotá, D.C",4.691027778,-74.13441667,Magdalena Cauca,Alto Magdalena,Río Bogotá,15/08/2002,07/09/2009
0021206620,COL H DURAN DUSAN [21206620],Climatológica Ordinaria,Convencional,Suspendida,"Bogotá, D.C",4.634611111,-74.17375,Magdalena Cauca,Alto Magdalena,Río Bogotá,15/11/2001,03/05/2019
0021206000,ADPOSTAL [21206000],Meteorológica Especial,Convencional,Suspendida,"Bogotá, D.C",4.68075,-74.12363889,Magdalena Cauca,Alto Magdalena,Río Bogotá,15/04/1985,10/05/2011
0021205240,VITELMA  [21205240],Climatológica Ordinaria,Convencional,Activa,"Bogotá, D.C",4.566666667,-74.06666667,Magdalena Cauca,Alto Magdalena,Río Bogotá,15/05/1941,
0021200630,SAN LUIS  [21200630],Pluviométrica,Convencional,Suspendida,"Bogotá, D.C",4.6,-74.08333333,Magdalena Cauca,Alto Magdalena,Río Bogotá,15/01/1957,15/12/1969
0021205820,LICORERA BOGOINAMA [21205820],Meteorológica Especial,Convencional,Suspendida,"Bogotá, D.C",4.616666667,-74.1,Magdalena Cauca,Alto Magdalena,Río Bogotá,15/11/1973,15/11/1983
0021202210,MICAELA - AUT [21202210],Climatológica Ordinaria,Automática con Telemetría,Activa,"Bogotá, D.C",4.50069,-74.0865,Magdalena Cauca,Alto Magdalena,Río Bogotá,01/10/2000,
0021205350,SAN RAFAEL 2  [21205350],Climatológica Ordinaria,Convencional,Suspendida,La Calera,4.7,-74,Magdalena Cauca,Alto Magdalena,Río Bogotá,15/11/1947,15/10/1955
0021206540,EDIFICIO PREMIUM [21206540],Meteorológica Especial,Convencional,Suspendida,"Bogotá, D.C",4.686944444,-74.05422222,Magdalena Cauca,Alto Magdalena,Río Bogotá,15/01/1997,10/12/2008
0021200940,TISQUESUSA  [21200940],Pluviométrica,Convencional,Suspendida,Facatativá,4.816666667,-74.31666667,Magdalena Cauca,Alto Magdalena,Río Bogotá,15/04/1966,15/10/1986
0021200710,MARGARITAS LAS  [21200710],Pluviométrica,Convencional,Activa,Subachoque,4.833333333,-74.25,Magdalena Cauca,Alto Magdalena,Río Bogotá,15/08/1959,
0021201230,ENMANUEL D' ALZON [21201230],Pluviométrica,Convencional,Suspendida,"Bogotá, D.C",4.701125,-74.07030556,Magdalena Cauca,Alto Magdalena,Río Bogotá,15/04/1974,24/11/2025
0035020290,FOMEQUE [35020290],Pluviométrica,Convencional,Activa,Fómeque,4.486527778,-73.89041667,Orinoco,Meta,Río Guayuriba,15/11/1981,
0021206870,CORTIJO EL  [21206870],Climatológica Principal,Convencional,Activa,"Bogotá, D.C",4.483333333,-74.11666667,Magdalena Cauca,Alto Magdalena,Río Bogotá,15/03/2004,
0021200990,CANOAS  [21200990],Pluviométrica,Convencional,Activa,Soacha,4.566666667,-74.3,Magdalena Cauca,Alto Magdalena,Río Bogotá,15/09/1967,
0021202250,DOÑA JUANA - AUT [21202250],Climatológica Ordinaria,Automática con Telemetría,Activa,"Bogotá, D.C",4.50082,-74.13739,Magdalena Cauca,Alto Magdalena,Río Bogotá,01/10/2000,
0021205505,PTAR TOCANCIPA  - AUT  [21205505],Climatológica Principal,Automática con Telemetría,Activa,Tocancipá,4.970111111,-73.91827778,Magdalena Cauca,Alto Magdalena,Río Bogotá,,
0035020390,MUNDONUEVO  [35020390],Pluviométrica,Convencional,Activa,La Calera,4.683333333,-73.86666667,Orinoco,Meta,Río Guayuriba,15/01/1971,
0021200010,CALLE 8 CRR 9 CASA  [21200010],Pluviométrica,Convencional,Suspendida,"Bogotá, D.C",4.6,-74.08333333,Magdalena Cauca,Alto Magdalena,Río Bogotá,15/05/1965,15/12/1992
0021200760,PTE MANRIQUE  [21200760],Pluviométrica,Convencional,Suspendida,Subachoque,4.9,-74.16666667,Magdalena Cauca,Alto Magdalena,Río Bogotá,15/03/1960,15/09/1969
0021201480,SUBA ALCANTARILLA  [21201480],Pluviográfica,Convencional,Suspendida,"Bogotá, D.C",4.833333333,-74.1,Magdalena Cauca,Alto Magdalena,Río Bogotá,15/01/1924,15/08/1959
0021205730,CENTRO MED ANDES [21205730],Meteorológica Especial,Convencional,Suspendida,"Bogotá, D.C",4.698166667,-74.03683333,Magdalena Cauca,Alto Magdalena,Río Bogotá,15/01/1985,10/05/2011
0021200500,CABANA LA  [21200500],Pluviométrica,Convencional,Activa,La Calera,4.766666667,-73.95,Magdalena Cauca,Alto Magdalena,Río Bogotá,15/07/1955,
0021206190,UNIV PEDAGOGICA [21206190],Climatológica Ordinaria,Convencional,Suspendida,"Bogotá, D.C",4.666666667,-74.06666667,Magdalena Cauca,Alto Magdalena,Río Bogotá,15/11/1986,10/12/2008
0021201760,STA ISABEL  [21201760],Pluviométrica,Convencional,Activa,Tabio,4.983333333,-74.06666667,Magdalena Cauca,Alto Magdalena,Río Bogotá,15/05/1968,
0021202010,MARIA LA  [21202010],Pluviográfica,Convencional,Activa,"Bogotá, D.C",4.516666667,-74.05,Magdalena Cauca,Alto Magdalena,Río Bogotá,15/09/1989,
0023060130,CARLINA LA  [23060130],Pluviométrica,Convencional,Activa,San Francisco,4.966666667,-74.33333333,Magdalena Cauca,Medio Magdalena,Río Negro,15/05/1965,
0021205513,LA RAMADA  - AUT  [21205513],Climatológica Principal,Automática con Telemetría,Activa,Funza,4.504576667,-74.18418667,Magdalena Cauca,Alto Magdalena,Río Bogotá,,
0021202030,MESETA LA  [21202030],Pluviográfica,Convencional,Activa,"Bogotá, D.C",4.516666667,-74.21666667,Magdalena Cauca,Alto Magdalena,Río Bogotá,15/09/1990,
0021206850,DESCARGA YOMASA  [21206850],Climatológica Principal,Convencional,Activa,"Bogotá, D.C",4.5,-74.11666667,Magdalena Cauca,Alto Magdalena,Río Bogotá,15/02/2004,
0021206470,ESPERANZA LA  [21206470],Climatológica Principal,Convencional,Activa,La Mesa,4.7,-74.33333333,Magdalena Cauca,Alto Magdalena,Río Bogotá,15/12/1992,
0021206610,EFRAIN CANAVERAL [21206610],Climatológica Ordinaria,Convencional,Suspendida,"Bogotá, D.C",4.583333333,-74.06666667,Magdalena Cauca,Alto Magdalena,Río Bogotá,15/11/2001,05/08/2009
0021205880,FLORES CHIBCHA [21205880],Meteorológica Especial,Convencional,Suspendida,Madrid,4.789722222,-74.26477778,Magdalena Cauca,Alto Magdalena,Río Bogotá,15/09/1976,14/11/2025
0021202100,IDEAM FONTIBON HB [21202100],Pluviográfica,Convencional,Suspendida,"Bogotá, D.C",4.7,-74.16666667,Magdalena Cauca,Alto Magdalena,Río Bogotá,15/06/1998,11/12/2008
0021200320,GRANIZO  [21200320],Pluviométrica,Convencional,Activa,"Bogotá, D.C",4.616666667,-74.05,Magdalena Cauca,Alto Magdalena,Río Bogotá,15/09/1947,
0021205030,GIMNASIO MODERNO  [21205030],Climatológica Ordinaria,Convencional,Suspendida,"Bogotá, D.C",4.65,-74.06666667,Magdalena Cauca,Alto Magdalena,Río Bogotá,15/06/1938,15/06/1944
0021201080,SAN FRANCISCO [21201080],Pluviométrica,Convencional,Suspendida,Sopó,4.9,-73.95,Magdalena Cauca,Alto Magdalena,Río Bogotá,15/07/1974,15/12/1979
0021205450,TIBITOC 1  [21205450],Climatológica Ordinaria,Convencional,Activa,Tocancipá,4.983333333,-73.96666667,Magdalena Cauca,Alto Magdalena,Río Bogotá,15/05/1956,
0021200520,STA LUCIA  [21200520],Pluviométrica,Convencional,Activa,"Bogotá, D.C",4.566666667,-74.11666667,Magdalena Cauca,Alto Magdalena,Río Bogotá,15/07/1956,
0035020230,FOMEQUE  [35020230],Pluviográfica,Convencional,Suspendida,Fómeque,4.483333333,-73.86666667,Orinoco,Meta,Río Guayuriba,15/08/1938,15/04/1942
0021205200,EST AGROPECUARI  [21205200],Climatológica Ordinaria,Convencional,Suspendida,Tabio,4.916666667,-74.1,Magdalena Cauca,Alto Magdalena,Río Bogotá,15/06/1940,15/08/1948
0021200400,SAN LUIS 1 Y 2  [21200400],Pluviográfica,Convencional,Activa,"Bogotá, D.C",4.633333333,-74.03333333,Magdalena Cauca,Alto Magdalena,Río Bogotá,15/02/1936,
0021205500,RHIN EL  [21205500],Climatológica Ordinaria,Convencional,Suspendida,Chía,4.883333333,-74.03333333,Magdalena Cauca,Alto Magdalena,Río Bogotá,15/09/1958,15/06/1969
0021201340,PARQUE SOPO  [21201340],Pluviográfica,Convencional,Activa,Sopó,4.75,-74.01666667,Magdalena Cauca,Alto Magdalena,Río Bogotá,15/03/1980,
0021205330,TOMINE 2  [21205330],Climatológica Ordinaria,Convencional,Suspendida,Guatavita,4.9,-73.86666667,Magdalena Cauca,Alto Magdalena,Río Bogotá,15/11/1955,15/04/1963
